[
  {
    "id": "orlando-innovation-ecosystem",
    "name": "Orlando Innovation Ecosystem",
    "type": "supercluster",
    "city": "Orlando",
    "country": "US",
    "lat": 28.5383,
    "lng": -81.3792,
    "cluster_count": 10,
    "evidence_count": null,
    "cluster_ids": [
      "orlando-advanced-manufacturing",
      "orlando-agtech",
      "orlando-aviation-aerospace",
      "orlando-cybersecurity",
      "orlando-digital-media",
      "orlando-medtech",
      "orlando-photonics-optics",
      "orlando-simulation-training",
      "orlando-spacetech",
      "orlando-tourism-technology"
    ],
    "summary": "Ten clusters diagnosed across the Orlando metropolitan region, spanning simulation and training, photonics, aerospace, cybersecurity, medtech, agtech, advanced manufacturing, digital media, space technology, and tourism technology.",
    "regime": "supercluster"
  },
  {
    "id": "greater-glasgow",
    "name": "Greater Glasgow",
    "type": "supercluster",
    "city": "Glasgow",
    "country": "GB",
    "lat": 55.864,
    "lng": -4.252,
    "cluster_count": 0,
    "evidence_count": null,
    "cluster_ids": [],
    "summary": "Greater Glasgow regional supercluster. Constituent cluster diagnostics pending import from clusteros-v3.",
    "regime": "supercluster"
  },
  {
    "id": "edinburgh-and-south-east",
    "name": "Edinburgh and South East Scotland",
    "type": "supercluster",
    "city": "Edinburgh",
    "country": "GB",
    "lat": 55.953,
    "lng": -3.189,
    "cluster_count": 0,
    "evidence_count": null,
    "cluster_ids": [],
    "summary": "Edinburgh and South East Scotland regional supercluster. Constituent cluster diagnostics pending import from clusteros-v3.",
    "regime": "supercluster"
  },
  {
    "id": "aberdeen",
    "name": "Aberdeen",
    "type": "supercluster",
    "city": "Aberdeen",
    "country": "GB",
    "lat": 57.150,
    "lng": -2.094,
    "cluster_count": 0,
    "evidence_count": null,
    "cluster_ids": [],
    "summary": "Aberdeen regional supercluster. Constituent cluster diagnostics pending import from clusteros-v3.",
    "regime": "supercluster"
  },
  {
    "id": "belfast",
    "name": "Belfast",
    "type": "supercluster",
    "city": "Belfast",
    "country": "GB",
    "lat": 54.597,
    "lng": -5.930,
    "cluster_count": 0,
    "evidence_count": null,
    "cluster_ids": [],
    "summary": "Belfast regional supercluster. Constituent cluster diagnostics pending import from clusteros-v3.",
    "regime": "supercluster"
  },
  {
    "id": "cambridge",
    "name": "Cambridge",
    "type": "supercluster",
    "city": "Cambridge",
    "country": "GB",
    "lat": 52.205,
    "lng": 0.121,
    "cluster_count": 0,
    "evidence_count": null,
    "cluster_ids": [],
    "summary": "Cambridge regional supercluster. Constituent cluster diagnostics pending import from clusteros-v3.",
    "regime": "supercluster"
  },
  {
    "id": "liverpool",
    "name": "Liverpool",
    "type": "supercluster",
    "city": "Liverpool",
    "country": "GB",
    "lat": 53.408,
    "lng": -2.991,
    "cluster_count": 0,
    "evidence_count": null,
    "cluster_ids": [],
    "summary": "Liverpool regional supercluster. Constituent cluster diagnostics pending import from clusteros-v3.",
    "regime": "supercluster"
  },
  {
    "id": "greater-manchester",
    "name": "Greater Manchester",
    "type": "supercluster",
    "city": "Manchester",
    "country": "GB",
    "lat": 53.483,
    "lng": -2.244,
    "cluster_count": 0,
    "evidence_count": null,
    "cluster_ids": [],
    "summary": "Greater Manchester regional supercluster. Constituent cluster diagnostics pending import from clusteros-v3.",
    "regime": "supercluster"
  },
  {
    "id": "west-midlands",
    "name": "West Midlands",
    "type": "supercluster",
    "city": "Birmingham",
    "country": "GB",
    "lat": 52.486,
    "lng": -1.891,
    "cluster_count": 0,
    "evidence_count": null,
    "cluster_ids": [],
    "summary": "West Midlands regional supercluster. Constituent cluster diagnostics pending import from clusteros-v3.",
    "regime": "supercluster"
  },
  {
    "id": "cardiff",
    "name": "Cardiff",
    "type": "supercluster",
    "city": "Cardiff",
    "country": "GB",
    "lat": 51.482,
    "lng": -3.179,
    "cluster_count": 0,
    "evidence_count": null,
    "cluster_ids": [],
    "summary": "Cardiff regional supercluster. Constituent cluster diagnostics pending import from clusteros-v3.",
    "regime": "supercluster"
  },
  {
    "id": "london",
    "name": "London",
    "type": "supercluster",
    "city": "London",
    "country": "GB",
    "lat": 51.507,
    "lng": -0.128,
    "cluster_count": 0,
    "evidence_count": null,
    "cluster_ids": [],
    "summary": "London regional supercluster. Constituent cluster diagnostics pending import from clusteros-v3.",
    "regime": "supercluster"
  }
]
